{
"type": "FeatureCollection",
"name": "dk_temp_2001-2010",
"crs": { "type": "name", "properties": { "name": "urn:ogc:def:crs:OGC:1.3:CRS84" } },
"features": [
{ "type": "Feature", "properties": { "Station": "6019", "Staionsnavn": "SILSTRUP", "Højde": "41", "jan": 1.7, "feb": 1.1, "mar": 2.9, "apr": 7.1, "maj": 10.6, "jun": 13.8, "jul": 16.6, "aug": 16.8, "sep": 13.8, "okt": 9.5, "nov": 5.8, "dec": 2.7, "år": 8.6, "orig_ogc_fid": 0 }, "geometry": { "type": "Point", "coordinates": [ 8.641, 56.9292 ] } },
{ "type": "Feature", "properties": { "Station": "6030", "Staionsnavn": "FLYVESTATION ÅLBORG", "Højde": "3", "jan": 1.3, "feb": 1.0, "mar": 3.0, "apr": 7.8, "maj": 11.8, "jun": 15.0, "jul": 17.7, "aug": 17.5, "sep": 13.9, "okt": 9.2, "nov": 5.5, "dec": 2.0, "år": 8.9, "orig_ogc_fid": 2 }, "geometry": { "type": "Point", "coordinates": [ 9.8505, 57.0963 ] } },
{ "type": "Feature", "properties": { "Station": "6031", "Staionsnavn": "TYLSTRUP", "Højde": "13", "jan": 1.0, "feb": 0.7, "mar": 2.5, "apr": 7.2, "maj": 11.1, "jun": 14.2, "jul": 16.9, "aug": 16.8, "sep": 13.4, "okt": 8.7, "nov": 5.2, "dec": 1.7, "år": 8.3, "orig_ogc_fid": 3 }, "geometry": { "type": "Point", "coordinates": [ 9.9526, 57.1852 ] } },
{ "type": "Feature", "properties": { "Station": "6032", "Staionsnavn": "STENHØJ", "Højde": "55", "jan": 0.9, "feb": 0.4, "mar": 2.1, "apr": 6.7, "maj": 10.7, "jun": 13.9, "jul": 16.6, "aug": 16.5, "sep": 13.2, "okt": 8.5, "nov": 4.9, "dec": 1.6, "år": 8.0, "orig_ogc_fid": 4 }, "geometry": { "type": "Point", "coordinates": [ 10.3349, 57.3828 ] } },
{ "type": "Feature", "properties": { "Station": "6041", "Staionsnavn": "SKAGEN FYR", "Højde": "3", "jan": 2.1, "feb": 1.2, "mar": 2.7, "apr": 6.8, "maj": 10.9, "jun": 14.5, "jul": 17.2, "aug": 17.4, "sep": 14.3, "okt": 9.9, "nov": 6.4, "dec": 3.1, "år": 8.9, "orig_ogc_fid": 6 }, "geometry": { "type": "Point", "coordinates": [ 10.6316, 57.7364 ] } },
{ "type": "Feature", "properties": { "Station": "6049", "Staionsnavn": "HALD VEST", "Højde": "88", "jan": 0.7, "feb": 0.5, "mar": 2.4, "apr": 6.9, "maj": 10.7, "jun": 13.7, "jul": 16.7, "aug": 16.5, "sep": 13.2, "okt": 8.5, "nov": 4.8, "dec": 1.4, "år": 8.0, "orig_ogc_fid": 9 }, "geometry": { "type": "Point", "coordinates": [ 10.0929, 56.5604 ] } },
{ "type": "Feature", "properties": { "Station": "6051", "Staionsnavn": "VESTERVIG", "Højde": "18", "jan": 1.8, "feb": 1.4, "mar": 3.1, "apr": 7.4, "maj": 10.8, "jun": 14.0, "jul": 17.0, "aug": 17.0, "sep": 13.9, "okt": 9.6, "nov": 6.0, "dec": 2.8, "år": 8.8, "orig_ogc_fid": 10 }, "geometry": { "type": "Point", "coordinates": [ 8.3206, 56.7637 ] } },
{ "type": "Feature", "properties": { "Station": "6052", "Staionsnavn": "THYBORØN", "Højde": "2", "jan": 2.5, "feb": 2.0, "mar": 3.5, "apr": 7.5, "maj": 11.0, "jun": 14.4, "jul": 17.3, "aug": 17.6, "sep": 14.8, "okt": 10.6, "nov": 7.0, "dec": 3.8, "år": 9.4, "orig_ogc_fid": 11 }, "geometry": { "type": "Point", "coordinates": [ 8.2149, 56.7068 ] } },
{ "type": "Feature", "properties": { "Station": "6056", "Staionsnavn": "MEJRUP", "Højde": "53", "jan": 1.4, "feb": 1.1, "mar": 3.0, "apr": 7.3, "maj": 10.8, "jun": 13.8, "jul": 16.6, "aug": 16.6, "sep": 13.4, "okt": 9.0, "nov": 5.5, "dec": 2.1, "år": 8.4, "orig_ogc_fid": 13 }, "geometry": { "type": "Point", "coordinates": [ 8.6704, 56.3829 ] } },
{ "type": "Feature", "properties": { "Station": "6058", "Staionsnavn": "HVIDE SANDE", "Højde": "2", "jan": 2.3, "feb": 2.0, "mar": 3.7, "apr": 7.9, "maj": 11.5, "jun": 14.6, "jul": 17.5, "aug": 17.8, "sep": 14.9, "okt": 10.7, "nov": 7.0, "dec": 3.5, "år": 9.5, "orig_ogc_fid": 14 }, "geometry": { "type": "Point", "coordinates": [ 8.1412, 56.0072 ] } },
{ "type": "Feature", "properties": { "Station": "6060", "Staionsnavn": "FLYVESTATION KARUP", "Højde": "52", "jan": 1.1, "feb": 0.9, "mar": 2.9, "apr": 7.5, "maj": 11.2, "jun": 14.3, "jul": 17.0, "aug": 16.7, "sep": 13.3, "okt": 8.7, "nov": 5.2, "dec": 1.6, "år": 8.4, "orig_ogc_fid": 15 }, "geometry": { "type": "Point", "coordinates": [ 9.1139, 56.2934 ] } },
{ "type": "Feature", "properties": { "Station": "6065", "Staionsnavn": "ÅRS SYD", "Højde": "32", "jan": 1.0, "feb": 0.8, "mar": 2.7, "apr": 7.4, "maj": 11.1, "jun": 14.2, "jul": 16.9, "aug": 16.7, "sep": 13.3, "okt": 8.7, "nov": 5.2, "dec": 1.7, "år": 8.3, "orig_ogc_fid": 17 }, "geometry": { "type": "Point", "coordinates": [ 9.5067, 56.7558 ] } },
{ "type": "Feature", "properties": { "Station": "6068", "Staionsnavn": "ISENVAD", "Højde": "60", "jan": 1.1, "feb": 0.9, "mar": 2.8, "apr": 7.3, "maj": 11.0, "jun": 13.8, "jul": 16.5, "aug": 16.3, "sep": 13.0, "okt": 8.5, "nov": 5.1, "dec": 1.5, "år": 8.2, "orig_ogc_fid": 18 }, "geometry": { "type": "Point", "coordinates": [ 9.1811, 56.0939 ] } },
{ "type": "Feature", "properties": { "Station": "6069", "Staionsnavn": "FOULUM", "Højde": "53", "jan": 0.9, "feb": 0.7, "mar": 2.6, "apr": 7.1, "maj": 10.9, "jun": 13.9, "jul": 16.7, "aug": 16.5, "sep": 13.1, "okt": 8.5, "nov": 5.0, "dec": 1.5, "år": 8.2, "orig_ogc_fid": 19 }, "geometry": { "type": "Point", "coordinates": [ 9.5709, 56.4931 ] } },
{ "type": "Feature", "properties": { "Station": "6070", "Staionsnavn": "ÅRHUS LUFTHAVN", "Højde": "20", "jan": 1.1, "feb": 0.8, "mar": 2.5, "apr": 7.0, "maj": 11.1, "jun": 14.3, "jul": 17.1, "aug": 16.7, "sep": 13.3, "okt": 8.6, "nov": 5.2, "dec": 1.7, "år": 8.3, "orig_ogc_fid": 20 }, "geometry": { "type": "Point", "coordinates": [ 10.6254, 56.3083 ] } },
{ "type": "Feature", "properties": { "Station": "6072", "Staionsnavn": "ØDUM", "Højde": "61", "jan": 1.2, "feb": 0.9, "mar": 2.7, "apr": 7.2, "maj": 11.1, "jun": 14.2, "jul": 17.0, "aug": 16.8, "sep": 13.4, "okt": 8.9, "nov": 5.2, "dec": 1.8, "år": 8.4, "orig_ogc_fid": 21 }, "geometry": { "type": "Point", "coordinates": [ 10.1272, 56.3027 ] } },
{ "type": "Feature", "properties": { "Station": "6073", "Staionsnavn": "SLETTERHAGE FYR", "Højde": "3", "jan": 2.1, "feb": 1.6, "mar": 3.0, "apr": 7.3, "maj": 11.5, "jun": 14.9, "jul": 17.7, "aug": 17.7, "sep": 14.7, "okt": 10.5, "nov": 6.7, "dec": 3.2, "år": 9.3, "orig_ogc_fid": 22 }, "geometry": { "type": "Point", "coordinates": [ 10.5136, 56.0955 ] } },
{ "type": "Feature", "properties": { "Station": "6074", "Staionsnavn": "ÅRHUS SYD", "Højde": "54", "jan": 1.3, "feb": 1.0, "mar": 2.8, "apr": 7.2, "maj": 11.1, "jun": 14.1, "jul": 16.9, "aug": 16.7, "sep": 13.4, "okt": 8.9, "nov": 5.4, "dec": 1.9, "år": 8.4, "orig_ogc_fid": 23 }, "geometry": { "type": "Point", "coordinates": [ 10.1353, 56.0803 ] } },
{ "type": "Feature", "properties": { "Station": "6079", "Staionsnavn": "ANHOLT HAVN", "Højde": "2", "jan": 1.9, "feb": 1.2, "mar": 2.5, "apr": 7.1, "maj": 11.6, "jun": 15.2, "jul": 18.2, "aug": 18.1, "sep": 15.0, "okt": 10.5, "nov": 6.7, "dec": 3.2, "år": 9.3, "orig_ogc_fid": 24 }, "geometry": { "type": "Point", "coordinates": [ 11.5096, 56.717 ] } },
{ "type": "Feature", "properties": { "Station": "6080", "Staionsnavn": "ESBJERG LUFTHAVN", "Højde": "24", "jan": 1.7, "feb": 1.6, "mar": 3.4, "apr": 7.8, "maj": 11.4, "jun": 14.5, "jul": 17.2, "aug": 17.0, "sep": 14.0, "okt": 9.6, "nov": 6.1, "dec": 2.4, "år": 8.9, "orig_ogc_fid": 25 }, "geometry": { "type": "Point", "coordinates": [ 8.5631, 55.5281 ] } },
{ "type": "Feature", "properties": { "Station": "6081", "Staionsnavn": "BLÅVANDSHUK FYR", "Højde": "13", "jan": 2.1, "feb": 1.7, "mar": 3.2, "apr": 7.2, "maj": 10.8, "jun": 14.0, "jul": 17.0, "aug": 17.3, "sep": 14.5, "okt": 10.3, "nov": 6.8, "dec": 3.2, "år": 9.1, "orig_ogc_fid": 26 }, "geometry": { "type": "Point", "coordinates": [ 8.0828, 55.5574 ] } },
{ "type": "Feature", "properties": { "Station": "6082", "Staionsnavn": "BORRIS", "Højde": "25", "jan": 1.5, "feb": 1.3, "mar": 3.2, "apr": 7.6, "maj": 11.1, "jun": 14.1, "jul": 16.8, "aug": 16.8, "sep": 13.6, "okt": 9.3, "nov": 5.7, "dec": 2.2, "år": 8.6, "orig_ogc_fid": 27 }, "geometry": { "type": "Point", "coordinates": [ 8.6242, 55.9591 ] } },
{ "type": "Feature", "properties": { "Station": "6088", "Staionsnavn": "NORDBY", "Højde": "4", "jan": 2.0, "feb": 1.9, "mar": 3.7, "apr": 8.2, "maj": 12.0, "jun": 15.2, "jul": 17.9, "aug": 17.7, "sep": 14.6, "okt": 10.1, "nov": 6.4, "dec": 2.8, "år": 9.4, "orig_ogc_fid": 28 }, "geometry": { "type": "Point", "coordinates": [ 8.3998, 55.4484 ] } },
{ "type": "Feature", "properties": { "Station": "6093", "Staionsnavn": "VESTER VEDSTED", "Højde": "3", "jan": 1.6, "feb": 1.7, "mar": 3.5, "apr": 7.9, "maj": 11.6, "jun": 14.7, "jul": 17.5, "aug": 17.4, "sep": 14.3, "okt": 9.9, "nov": 6.3, "dec": 2.4, "år": 9.1, "orig_ogc_fid": 29 }, "geometry": { "type": "Point", "coordinates": [ 8.655, 55.2911 ] } },
{ "type": "Feature", "properties": { "Station": "6096", "Staionsnavn": "RØMØ\/JUVRE", "Højde": "6", "jan": 2.0, "feb": 1.8, "mar": 3.6, "apr": 7.9, "maj": 11.6, "jun": 14.7, "jul": 17.6, "aug": 17.5, "sep": 14.6, "okt": 10.2, "nov": 6.6, "dec": 2.8, "år": 9.3, "orig_ogc_fid": 30 }, "geometry": { "type": "Point", "coordinates": [ 8.56, 55.1905 ] } },
{ "type": "Feature", "properties": { "Station": "6102", "Staionsnavn": "HORSENS\/BYGHOLM", "Højde": "22", "jan": 1.4, "feb": 1.2, "mar": 3.0, "apr": 7.5, "maj": 11.3, "jun": 14.3, "jul": 17.0, "aug": 16.7, "sep": 13.4, "okt": 9.0, "nov": 5.5, "dec": 1.9, "år": 8.6, "orig_ogc_fid": 32 }, "geometry": { "type": "Point", "coordinates": [ 9.7869, 55.868 ] } },
{ "type": "Feature", "properties": { "Station": "6104", "Staionsnavn": "BILLUND LUFTHAVN", "Højde": "75", "jan": 1.1, "feb": 1.0, "mar": 2.9, "apr": 7.5, "maj": 11.2, "jun": 14.3, "jul": 17.0, "aug": 16.6, "sep": 13.3, "okt": 8.8, "nov": 5.2, "dec": 1.5, "år": 8.4, "orig_ogc_fid": 33 }, "geometry": { "type": "Point", "coordinates": [ 9.1674, 55.7379 ] } },
{ "type": "Feature", "properties": { "Station": "6108", "Staionsnavn": "KOLDINGEGNENS LUFTHAVN", "Højde": "44", "jan": 1.2, "feb": 1.2, "mar": 3.1, "apr": 7.6, "maj": 11.3, "jun": 14.3, "jul": 17.0, "aug": 16.7, "sep": 13.4, "okt": 9.1, "nov": 5.4, "dec": 1.8, "år": 8.5, "orig_ogc_fid": 34 }, "geometry": { "type": "Point", "coordinates": [ 9.3337, 55.4376 ] } },
{ "type": "Feature", "properties": { "Station": "6109", "Staionsnavn": "ASKOV", "Højde": "62", "jan": 1.4, "feb": 1.2, "mar": 3.1, "apr": 7.7, "maj": 11.4, "jun": 14.4, "jul": 17.2, "aug": 16.9, "sep": 13.7, "okt": 9.3, "nov": 5.7, "dec": 2.0, "år": 8.7, "orig_ogc_fid": 35 }, "geometry": { "type": "Point", "coordinates": [ 9.1123, 55.4715 ] } },
{ "type": "Feature", "properties": { "Station": "6110", "Staionsnavn": "FLYVESTATION SKRYDSTRUP", "Højde": "41", "jan": 1.2, "feb": 1.3, "mar": 3.2, "apr": 7.7, "maj": 11.5, "jun": 14.5, "jul": 17.3, "aug": 16.8, "sep": 13.6, "okt": 9.1, "nov": 5.4, "dec": 1.7, "år": 8.6, "orig_ogc_fid": 36 }, "geometry": { "type": "Point", "coordinates": [ 9.2634, 55.2252 ] } },
{ "type": "Feature", "properties": { "Station": "6116", "Staionsnavn": "STORE JYNDEVAD", "Højde": "15", "jan": 1.6, "feb": 1.7, "mar": 3.6, "apr": 8.1, "maj": 11.8, "jun": 14.8, "jul": 17.5, "aug": 17.2, "sep": 13.9, "okt": 9.6, "nov": 6.0, "dec": 2.1, "år": 9.0, "orig_ogc_fid": 37 }, "geometry": { "type": "Point", "coordinates": [ 9.1226, 54.8986 ] } },
{ "type": "Feature", "properties": { "Station": "6118", "Staionsnavn": "SØNDERBORG LUFTHAVN", "Højde": "8", "jan": 2.0, "feb": 2.0, "mar": 3.8, "apr": 8.0, "maj": 11.9, "jun": 15.0, "jul": 17.9, "aug": 17.8, "sep": 14.6, "okt": 10.3, "nov": 6.5, "dec": 2.8, "år": 9.4, "orig_ogc_fid": 38 }, "geometry": { "type": "Point", "coordinates": [ 9.7875, 54.9622 ] } },
{ "type": "Feature", "properties": { "Station": "6119", "Staionsnavn": "KEGNÆS FYR", "Højde": "17", "jan": 2.1, "feb": 1.9, "mar": 3.4, "apr": 7.4, "maj": 11.8, "jun": 14.9, "jul": 17.9, "aug": 17.9, "sep": 14.9, "okt": 10.7, "nov": 6.8, "dec": 3.1, "år": 9.4, "orig_ogc_fid": 39 }, "geometry": { "type": "Point", "coordinates": [ 9.988, 54.8528 ] } },
{ "type": "Feature", "properties": { "Station": "6120", "Staionsnavn": "ODENSE LUFTHAVN", "Højde": "15", "jan": 1.6, "feb": 1.6, "mar": 3.5, "apr": 7.9, "maj": 11.8, "jun": 14.9, "jul": 17.8, "aug": 17.4, "sep": 14.1, "okt": 9.5, "nov": 6.0, "dec": 2.3, "år": 9.1, "orig_ogc_fid": 40 }, "geometry": { "type": "Point", "coordinates": [ 10.3305, 55.4749 ] } },
{ "type": "Feature", "properties": { "Station": "6123", "Staionsnavn": "ASSENS\/TORØ", "Højde": "2", "jan": 2.0, "feb": 1.8, "mar": 3.4, "apr": 7.9, "maj": 12.1, "jun": 15.2, "jul": 18.2, "aug": 18.1, "sep": 14.9, "okt": 10.6, "nov": 6.8, "dec": 3.1, "år": 9.5, "orig_ogc_fid": 41 }, "geometry": { "type": "Point", "coordinates": [ 9.8882, 55.2444 ] } },
{ "type": "Feature", "properties": { "Station": "6124", "Staionsnavn": "SYDFYNS FLYVEPLADS", "Højde": "6", "jan": 1.5, "feb": 1.5, "mar": 3.4, "apr": 7.7, "maj": 11.9, "jun": 15.0, "jul": 18.0, "aug": 17.8, "sep": 14.5, "okt": 9.9, "nov": 6.2, "dec": 2.5, "år": 9.2, "orig_ogc_fid": 42 }, "geometry": { "type": "Point", "coordinates": [ 10.5693, 55.0144 ] } },
{ "type": "Feature", "properties": { "Station": "6126", "Staionsnavn": "ÅRSLEV", "Højde": "49", "jan": 1.3, "feb": 1.4, "mar": 3.2, "apr": 7.7, "maj": 11.6, "jun": 14.6, "jul": 17.5, "aug": 17.1, "sep": 13.8, "okt": 9.3, "nov": 5.7, "dec": 2.1, "år": 8.8, "orig_ogc_fid": 43 }, "geometry": { "type": "Point", "coordinates": [ 10.4398, 55.3088 ] } },
{ "type": "Feature", "properties": { "Station": "6132", "Staionsnavn": "TRANEBJERG ØST", "Højde": "16", "jan": 1.9, "feb": 1.6, "mar": 3.2, "apr": 7.4, "maj": 11.6, "jun": 14.8, "jul": 17.8, "aug": 17.6, "sep": 14.5, "okt": 10.1, "nov": 6.4, "dec": 2.9, "år": 9.2, "orig_ogc_fid": 44 }, "geometry": { "type": "Point", "coordinates": [ 10.6216, 55.8315 ] } },
{ "type": "Feature", "properties": { "Station": "6135", "Staionsnavn": "FLAKKEBJERG", "Højde": "32", "jan": 1.1, "feb": 1.1, "mar": 3.0, "apr": 7.5, "maj": 11.7, "jun": 14.6, "jul": 17.6, "aug": 17.4, "sep": 14.0, "okt": 9.3, "nov": 5.6, "dec": 2.0, "år": 8.8, "orig_ogc_fid": 45 }, "geometry": { "type": "Point", "coordinates": [ 11.388, 55.3216 ] } },
{ "type": "Feature", "properties": { "Station": "6136", "Staionsnavn": "TYSTOFTE", "Højde": "12", "jan": 1.4, "feb": 1.3, "mar": 3.2, "apr": 7.7, "maj": 12.1, "jun": 15.1, "jul": 18.2, "aug": 17.9, "sep": 14.5, "okt": 9.8, "nov": 6.1, "dec": 2.4, "år": 9.2, "orig_ogc_fid": 46 }, "geometry": { "type": "Point", "coordinates": [ 11.3284, 55.2465 ] } },
{ "type": "Feature", "properties": { "Station": "6138", "Staionsnavn": "LANGØ", "Højde": "2", "jan": 1.8, "feb": 1.7, "mar": 3.6, "apr": 8.0, "maj": 12.4, "jun": 15.5, "jul": 18.6, "aug": 18.4, "sep": 15.1, "okt": 10.6, "nov": 6.7, "dec": 2.9, "år": 9.7, "orig_ogc_fid": 47 }, "geometry": { "type": "Point", "coordinates": [ 10.9939, 54.8205 ] } },
{ "type": "Feature", "properties": { "Station": "6141", "Staionsnavn": "ABED", "Højde": "7", "jan": 1.4, "feb": 1.5, "mar": 3.5, "apr": 8.0, "maj": 12.1, "jun": 15.1, "jul": 18.1, "aug": 17.8, "sep": 14.5, "okt": 9.8, "nov": 6.1, "dec": 2.4, "år": 9.2, "orig_ogc_fid": 48 }, "geometry": { "type": "Point", "coordinates": [ 11.329, 54.8274 ] } },
{ "type": "Feature", "properties": { "Station": "6149", "Staionsnavn": "GEDSER", "Højde": "3", "jan": 1.5, "feb": 1.5, "mar": 3.0, "apr": 6.8, "maj": 11.4, "jun": 14.9, "jul": 18.1, "aug": 17.9, "sep": 14.9, "okt": 10.5, "nov": 6.5, "dec": 2.8, "år": 9.2, "orig_ogc_fid": 49 }, "geometry": { "type": "Point", "coordinates": [ 11.9435, 54.5687 ] } },
{ "type": "Feature", "properties": { "Station": "6151", "Staionsnavn": "OMØ FYR", "Højde": "1", "jan": 1.8, "feb": 1.6, "mar": 3.1, "apr": 7.2, "maj": 11.7, "jun": 15.2, "jul": 18.3, "aug": 18.1, "sep": 15.0, "okt": 10.6, "nov": 6.8, "dec": 3.1, "år": 9.4, "orig_ogc_fid": 50 }, "geometry": { "type": "Point", "coordinates": [ 11.1347, 55.1592 ] } },
{ "type": "Feature", "properties": { "Station": "6154", "Staionsnavn": "BRANDELEV", "Højde": "45", "jan": 0.9, "feb": 0.9, "mar": 2.9, "apr": 7.3, "maj": 11.7, "jun": 14.7, "jul": 17.8, "aug": 17.5, "sep": 14.0, "okt": 9.3, "nov": 5.6, "dec": 1.9, "år": 8.8, "orig_ogc_fid": 51 }, "geometry": { "type": "Point", "coordinates": [ 11.8603, 55.2075 ] } },
{ "type": "Feature", "properties": { "Station": "6156", "Staionsnavn": "HOLBÆK FLYVEPLADS", "Højde": "12", "jan": 1.1, "feb": 1.0, "mar": 2.9, "apr": 7.6, "maj": 11.7, "jun": 14.9, "jul": 17.9, "aug": 17.6, "sep": 14.1, "okt": 9.3, "nov": 5.7, "dec": 2.1, "år": 8.9, "orig_ogc_fid": 52 }, "geometry": { "type": "Point", "coordinates": [ 11.6035, 55.7358 ] } },
{ "type": "Feature", "properties": { "Station": "6159", "Staionsnavn": "RØSNÆS FYR", "Højde": "14", "jan": 2.0, "feb": 1.6, "mar": 3.2, "apr": 7.5, "maj": 11.9, "jun": 15.2, "jul": 18.3, "aug": 18.1, "sep": 15.0, "okt": 10.6, "nov": 6.7, "dec": 3.2, "år": 9.5, "orig_ogc_fid": 54 }, "geometry": { "type": "Point", "coordinates": [ 10.8695, 55.7435 ] } },
{ "type": "Feature", "properties": { "Station": "6160", "Staionsnavn": "FLYVESTATION VÆRLØSE", "Højde": "17", "jan": 0.9, "feb": 0.8, "mar": 2.8, "apr": 7.4, "maj": 11.7, "jun": 15.0, "jul": 17.9, "aug": 17.3, "sep": 13.8, "okt": 8.9, "nov": 5.4, "dec": 1.8, "år": 8.7, "orig_ogc_fid": 55 }, "geometry": { "type": "Point", "coordinates": [ 12.3289, 55.7668 ] } },
{ "type": "Feature", "properties": { "Station": "6165", "Staionsnavn": "HESSELØ", "Højde": "16", "jan": 1.7, "feb": 1.1, "mar": 2.5, "apr": 6.9, "maj": 11.4, "jun": 14.9, "jul": 18.1, "aug": 18.0, "sep": 14.9, "okt": 10.4, "nov": 6.5, "dec": 3.0, "år": 9.2, "orig_ogc_fid": 56 }, "geometry": { "type": "Point", "coordinates": [ 11.7099, 56.1961 ] } },
{ "type": "Feature", "properties": { "Station": "6168", "Staionsnavn": "NAKKEHOVED FYR", "Højde": "37", "jan": 1.1, "feb": 0.8, "mar": 2.8, "apr": 7.6, "maj": 12.0, "jun": 15.2, "jul": 18.1, "aug": 17.6, "sep": 14.1, "okt": 9.3, "nov": 5.6, "dec": 2.1, "år": 8.9, "orig_ogc_fid": 57 }, "geometry": { "type": "Point", "coordinates": [ 12.3422, 56.1193 ] } },
{ "type": "Feature", "properties": { "Station": "6169", "Staionsnavn": "GNIBEN", "Højde": "13", "jan": 1.8, "feb": 1.3, "mar": 2.8, "apr": 7.1, "maj": 11.5, "jun": 14.9, "jul": 17.9, "aug": 17.9, "sep": 14.9, "okt": 10.4, "nov": 6.6, "dec": 3.1, "år": 9.2, "orig_ogc_fid": 58 }, "geometry": { "type": "Point", "coordinates": [ 11.2784, 56.0085 ] } },
{ "type": "Feature", "properties": { "Station": "6170", "Staionsnavn": "ROSKILDE LUFTHAVN", "Højde": "42", "jan": 0.7, "feb": 0.6, "mar": 2.6, "apr": 7.0, "maj": 11.5, "jun": 14.7, "jul": 17.6, "aug": 17.2, "sep": 13.7, "okt": 8.9, "nov": 5.2, "dec": 1.6, "år": 8.5, "orig_ogc_fid": 59 }, "geometry": { "type": "Point", "coordinates": [ 12.1363, 55.5868 ] } },
{ "type": "Feature", "properties": { "Station": "6174", "Staionsnavn": "TESSEBØLLE", "Højde": "21", "jan": 1.0, "feb": 0.9, "mar": 2.9, "apr": 7.1, "maj": 11.5, "jun": 14.6, "jul": 17.7, "aug": 17.3, "sep": 13.9, "okt": 9.1, "nov": 5.5, "dec": 2.0, "år": 8.7, "orig_ogc_fid": 60 }, "geometry": { "type": "Point", "coordinates": [ 12.149, 55.3955 ] } },
{ "type": "Feature", "properties": { "Station": "6179", "Staionsnavn": "MØN FYR", "Højde": "14", "jan": 1.6, "feb": 1.5, "mar": 3.0, "apr": 6.6, "maj": 11.3, "jun": 14.9, "jul": 18.1, "aug": 17.9, "sep": 14.8, "okt": 10.4, "nov": 6.4, "dec": 2.8, "år": 9.2, "orig_ogc_fid": 61 }, "geometry": { "type": "Point", "coordinates": [ 12.5401, 54.9465 ] } },
{ "type": "Feature", "properties": { "Station": "6180", "Staionsnavn": "KØBENHAVNS LUFTHAVN", "Højde": "5", "jan": 1.3, "feb": 1.1, "mar": 3.1, "apr": 7.4, "maj": 12.1, "jun": 15.5, "jul": 18.5, "aug": 18.0, "sep": 14.4, "okt": 9.7, "nov": 5.9, "dec": 2.3, "år": 9.1, "orig_ogc_fid": 62 }, "geometry": { "type": "Point", "coordinates": [ 12.6454, 55.614 ] } },
{ "type": "Feature", "properties": { "Station": "6181", "Staionsnavn": "JÆGERSBORG", "Højde": "40", "jan": 1.2, "feb": 1.0, "mar": 3.1, "apr": 7.7, "maj": 12.1, "jun": 15.5, "jul": 18.4, "aug": 17.8, "sep": 14.2, "okt": 9.4, "nov": 5.7, "dec": 2.1, "år": 9.1, "orig_ogc_fid": 63 }, "geometry": { "type": "Point", "coordinates": [ 12.5263, 55.7663 ] } },
{ "type": "Feature", "properties": { "Station": "6184", "Staionsnavn": "DMI", "Højde": "8", "jan": 1.4, "feb": 1.3, "mar": 3.3, "apr": 7.9, "maj": 12.3, "jun": 15.7, "jul": 18.6, "aug": 18.0, "sep": 14.4, "okt": 9.6, "nov": 5.9, "dec": 2.4, "år": 9.3, "orig_ogc_fid": 64 }, "geometry": { "type": "Point", "coordinates": [ 12.5622, 55.7161 ] } },
{ "type": "Feature", "properties": { "Station": "6186", "Staionsnavn": "LANDBOHØJSKOLEN", "Højde": "7", "jan": 1.6, "feb": 1.5, "mar": 3.5, "apr": 8.1, "maj": 12.6, "jun": 15.8, "jul": 18.8, "aug": 18.2, "sep": 14.6, "okt": 9.7, "nov": 6.1, "dec": 2.6, "år": 9.5, "orig_ogc_fid": 65 }, "geometry": { "type": "Point", "coordinates": [ 12.544, 55.6862 ] } },
{ "type": "Feature", "properties": { "Station": "6188", "Staionsnavn": "SJÆLSMARK", "Højde": "40", "jan": 0.9, "feb": 0.7, "mar": 2.7, "apr": 7.4, "maj": 11.6, "jun": 14.8, "jul": 17.7, "aug": 17.2, "sep": 13.6, "okt": 8.8, "nov": 5.3, "dec": 1.8, "år": 8.6, "orig_ogc_fid": 67 }, "geometry": { "type": "Point", "coordinates": [ 12.4121, 55.8765 ] } },
{ "type": "Feature", "properties": { "Station": "6190", "Staionsnavn": "BORNHOLMS LUFTHAVN", "Højde": "15", "jan": 1.5, "feb": 1.2, "mar": 2.5, "apr": 6.4, "maj": 10.9, "jun": 14.8, "jul": 18.3, "aug": 18.2, "sep": 14.8, "okt": 10.2, "nov": 6.4, "dec": 2.9, "år": 9.1, "orig_ogc_fid": 68 }, "geometry": { "type": "Point", "coordinates": [ 14.7494, 55.0677 ] } },
{ "type": "Feature", "properties": { "Station": "6193", "Staionsnavn": "HAMMER ODDE FYR", "Højde": "8", "jan": 1.6, "feb": 1.3, "mar": 2.4, "apr": 5.9, "maj": 10.4, "jun": 14.3, "jul": 17.9, "aug": 17.9, "sep": 15.0, "okt": 10.4, "nov": 6.6, "dec": 3.1, "år": 8.9, "orig_ogc_fid": 69 }, "geometry": { "type": "Point", "coordinates": [ 14.7718, 55.298 ] } },
{ "type": "Feature", "properties": { "Station": "6197", "Staionsnavn": "NEXØ VEST", "Højde": "23", "jan": 1.3, "feb": 1.1, "mar": 2.5, "apr": 6.1, "maj": 10.7, "jun": 14.4, "jul": 17.9, "aug": 17.9, "sep": 14.5, "okt": 10.0, "nov": 6.0, "dec": 2.6, "år": 8.8, "orig_ogc_fid": 70 }, "geometry": { "type": "Point", "coordinates": [ 15.0954, 55.0557 ] } }
]
}
